[
    { "id": "강남역", "name": "강남역", "official": "강남역", "mbti": "ENTJ", "lat": 37.4979, "lng": 127.0276, "tags": ["#ENTJ", "#비즈니스"], "desc": "대한민국에서 가장 에너지가 넘치는 비즈니스와 유행의 중심지입니다." },
    { "id": "성수동카페거리", "name": "성수동", "official": "성수카페거리", "mbti": "INTP", "lat": 37.5445, "lng": 127.0560, "tags": ["#INTP", "#힙플레이스"], "desc": "공장을 개조한 카페들이 모여있는 가장 트렌디한 동네입니다." },
    { "id": "망원한강공원", "name": "망원한강", "official": "망원한강공원", "mbti": "ENFP", "lat": 37.5512, "lng": 126.8994, "tags": ["#ENFP", "#노을맛집"], "desc": "자유로운 분위기에서 한강 노을을 즐기며 피크닉하기 좋습니다." },
    { "id": "명동관광특구", "name": "명동", "official": "명동 관광특구", "mbti": "ESFP", "lat": 37.5637, "lng": 126.9841, "tags": ["#ESFP", "#쇼핑성지"], "desc": "글로벌 여행객과 활기찬 길거리 음식이 가득한 쇼핑의 메카입니다." },
    { "id": "연남동", "name": "연남동", "official": "연남동", "mbti": "ISFP", "lat": 37.5615, "lng": 126.9242, "tags": ["#ISFP", "#경의선숲길"], "desc": "숲길을 따라 아기자기한 맛집과 공방이 숨어있는 감성 동네입니다." },
    { "id": "홍대입구역", "name": "홍대", "official": "홍대 관광특구", "mbti": "ENTP", "lat": 37.5575, "lng": 126.9245, "tags": ["#ENTP", "#예술"], "desc": "버스킹과 젊음의 에너지가 24시간 꺼지지 않는 자유로운 곳입니다." },
    { "id": "여의도한강공원", "name": "여의도", "official": "여의도한강공원", "mbti": "ENFJ", "lat": 37.5284, "lng": 126.9341, "tags": ["#ENFJ", "#도심휴식"], "desc": "탁 트인 한강과 고층 빌딩이 조화를 이루는 서울의 랜드마크입니다." },
    { "id": "이태원관광특구", "name": "이태원", "official": "이태원 관광특구", "mbti": "ENTP", "lat": 37.5345, "lng": 126.9942, "tags": ["#ENTP", "#글로벌"], "desc": "다양한 국가의 음식과 이국적인 밤 문화를 만날 수 있습니다." },
    { "id": "잠실관광특구", "name": "잠실", "official": "잠실 관광특구", "mbti": "ESFJ", "lat": 37.5148, "lng": 127.0736, "tags": ["#ESFJ", "#롯데월드"], "desc": "석촌호수와 테마파크가 있어 가족, 연인과 함께하기 최고입니다." },
    { "id": "가로수길", "name": "신사동", "official": "가로수길", "mbti": "ESTP", "lat": 37.5203, "lng": 127.0230, "tags": ["#ESTP", "#패션"], "desc": "세련된 쇼룸과 이국적인 테라스가 매력적인 패션의 거리입니다." },
    { "id": "종로·청계관광특구", "name": "종로", "official": "종로·청계 관광특구", "mbti": "ISTJ", "lat": 37.5701, "lng": 126.9830, "tags": ["#ISTJ", "#역사"], "desc": "청계천을 따라 걷는 여유와 서울의 오랜 역사를 느낄 수 있습니다." },
    { "id": "인사동·익선동", "name": "익선동", "official": "익선동", "mbti": "INFJ", "lat": 37.5743, "lng": 126.9897, "tags": ["#INFJ", "#뉴트로"], "desc": "좁은 골목길 사이 한옥 카페들이 선사하는 특별한 아늑함이 있습니다." },
    { "id": "서울숲공원", "name": "서울숲", "official": "서울숲공원", "mbti": "INFP", "lat": 37.5443, "lng": 127.0374, "tags": ["#INFP", "#자연"], "desc": "푸른 숲과 사슴이 있는, 도심 속 진정한 힐링 공간입니다." },
    { "id": "반포한강공원", "name": "반포", "official": "반포한강공원", "mbti": "ISFJ", "lat": 37.5115, "lng": 126.9961, "tags": ["#ISFJ", "#분수쇼"], "desc": "무지개 분수쇼와 함께 로맨틱한 밤 산책을 즐기기 좋습니다." },
    { "id": "압구정로데오거리", "name": "압구정", "official": "압구정로데오거리", "mbti": "ESTJ", "lat": 37.5268, "lng": 127.0385, "tags": ["#ESTJ", "#럭셔리"], "desc": "고급스러운 갤러리와 명품 브랜드들이 즐비한 세련된 구역입니다." },
    { "id": "동대문관광특구", "name": "동대문", "official": "동대문 관광특구", "mbti": "ISTP", "lat": 37.5668, "lng": 127.0096, "tags": ["#ISTP", "#DDP"], "desc": "패션 산업의 메카이자 밤샘 쇼핑이 가능한 다이나믹한 곳입니다." },
    { "id": "북촌한옥마을", "name": "북촌", "official": "북촌한옥마을", "mbti": "ISFJ", "lat": 37.5829, "lng": 126.9835, "tags": ["#ISFJ", "#전통"], "desc": "한옥의 미학과 서울 전경을 한눈에 담을 수 있는 조용한 마을입니다." },
    { "id": "건대입구역", "name": "건대", "official": "건대입구역", "mbti": "ENFP", "lat": 37.5404, "lng": 127.0692, "tags": ["#ENFP", "#젊음"], "desc": "대학가의 활기와 맛집, 커먼그라운드 등 즐길 거리가 다양합니다." },
    { "id": "대학로", "name": "혜화", "official": "혜화역", "mbti": "INFP", "lat": 37.5822, "lng": 127.0019, "tags": ["#INFP", "#연극"], "desc": "작은 소극장들과 예술적 낭만이 살아있는 연극의 거리입니다." },
    { "id": "남산서울타워", "name": "남산", "official": "남산공원", "mbti": "INFJ", "lat": 37.5512, "lng": 126.9882, "tags": ["#INFJ", "#야경"], "desc": "서울의 야경을 가장 아름답게 볼 수 있는 상징적인 장소입니다." },
    { "id": "뚝섬한강공원", "name": "뚝섬", "official": "뚝섬한강공원", "mbti": "ESFP", "lat": 37.5287, "lng": 127.0673, "tags": ["#ESFP", "#레저"], "desc": "윈드서핑 등 수상 레저와 함께 활기찬 여름을 즐기기 좋습니다." },
    { "id": "경복궁", "name": "경복궁", "official": "경복궁", "mbti": "ISTJ", "lat": 37.5796, "lng": 126.9770, "tags": ["#ISTJ", "#궁궐"], "desc": "조선 왕조의 위엄과 아름다움을 간직한 서울의 대표 고궁입니다." },
    { "id": "용산역", "name": "용산", "official": "용산역", "mbti": "INTJ", "lat": 37.5298, "lng": 126.9648, "tags": ["#INTJ", "#아이파크몰"], "desc": "교통의 허브이자 복합 쇼핑몰, 용리단길의 감성이 모이는 곳입니다." }
  ]